{
    "WorldCitiesList": [
                        {
                        "Country": "ad",
                        "City": "aixas",
                        "AccentCity": "Aixas",
                        "Region": 6,
                        "Population": 501017,
                        "Latitude": 42.4833333,
                        "Longitude": 1.4666667
                        },
                        {
                        "Country": "ad",
                        "City": "axirivali",
                        "AccentCity": "Axirivali",
                        "Region": 6,
                        "Population": 0,
                        "Latitude": 42.4666667,
                        "Longitude": 1.5
                        },
                        {
                        "Country": "ad",
                        "City": "axirivall",
                        "AccentCity": "Axirivall",
                        "Region": 6,
                        "Population": 187989,
                        "Latitude": 42.4666667,
                        "Longitude": 1.5
                        },
                        {
                        "Country": "ad",
                        "City": "zirvall",
                        "AccentCity": "zirvall",
                        "Region": 6,
                        "Population": 0,
                        "Latitude": 42.4666667,
                        "Longitude": 1.5
                        },
                        {
                        "Country": "ad",
                        "City": "ovall",
                        "AccentCity": "ovall",
                        "Region": 6,
                        "Population": 0,
                        "Latitude": 42.4666667,
                        "Longitude": 1.4833333
                        },
                        {
                        "Country": "ad",
                        "City": "dorra",
                        "AccentCity": "dorra",
                        "Region": 7,
                        "Population": 0,
                        "Latitude": 42.5,
                        "Longitude": 1.5166667
                        },
                        {
                        "Country": "ad",
                        "City": "dorra la vella",
                        "AccentCity": "dorra la Vella",
                        "Region": 7,
                        "Population": 20430,
                        "Latitude": 42.5,
                        "Longitude": 1.5166667
                        },
                        {
                        "Country": "ad",
                        "City": "vieille",
                        "AccentCity": "Vieille",
                        "Region": 7,
                        "Population": 0,
                        "Latitude": 42.5,
                        "Longitude": 1.5166667
                        },
                        {
                        "Country": "ad",
                        "City": "vieille andorre",
                        "AccentCity": "vieille Andorre",
                        "Region": 7,
                        "Population": 0,
                        "Latitude": 42.5,
                        "Longitude": 1.5166667
                        },
                        {
                        "Country": "ad",
                        "City": "vieille anior",
                        "AccentCity": "Vieille anior",
                        "Region": 7,
                        "Population": 0,
                        "Latitude": 42.5,
                        "Longitude": 1.5166667
                        },
                        {
                        "Country": "ad",
                        "City": "andorrevieille",
                        "AccentCity": "AndorreVieille",
                        "Region": 7,
                        "Population": 0,
                        "Latitude": 42.5,
                        "Longitude": 1.5166667
                        },
                        {
                        "Country": "ad",
                        "City": "ansalonga",
                        "AccentCity": "Ansalonga",
                        "Region": 4,
                        "Population": 0,
                        "Latitude": 42.5666667,
                        "Longitude": 1.5166667
                        },
                        {
                        "Country": "ad",
                        "City": "anyos",
                        "AccentCity": "Anys",
                        "Region": 5,
                        "Population": 0,
                        "Latitude": 42.5333333,
                        "Longitude": 1.5333333
                        },
                        {
                        "Country": "ad",
                        "City": "arans",
                        "AccentCity": "Arans",
                        "Region": 4,
                        "Population": 0,
                        "Latitude": 42.5833333,
                        "Longitude": 1.5166667
                        },
                        {
                        "Country": "ad",
                        "City": "arinsal",
                        "AccentCity": "Arinsal",
                        "Region": 4,
                        "Population": 0,
                        "Latitude": 42.5666667,
                        "Longitude": 1.4833333
                        },
                        {
                        "Country": "ad",
                        "City": "aubinya",
                        "AccentCity": "Aubiny",
                        "Region": 6,
                        "Population": 0,
                        "Latitude": 42.45,
                        "Longitude": 1.5
                        },
                        {
                        "Country": "ad",
                        "City": "auvinya",
                        "AccentCity": "Auvinya",
                        "Region": 6,
                        "Population": 0,
                        "Latitude": 42.45,
                        "Longitude": 1.5
                        },
                        {
                        "Country": "ad",
                        "City": "bicisarri",
                        "AccentCity": "Bisarri",
                        "Region": 6,
                        "Population": 0,
                        "Latitude": 42.4833333,
                        "Longitude": 1.4666667
                        },
                        {
                        "Country": "ad",
                        "City": "bixessarri",
                        "AccentCity": "Bixessarri",
                        "Region": 6,
                        "Population": 0,
                        "Latitude": 42.4833333,
                        "Longitude": 1.4666667
                        },
                        {
                        "Country": "ad",
                        "City": "bixisarri",
                        "AccentCity": "Bixisarri",
                        "Region": 6,
                        "Population": 0,
                        "Latitude": 42.4833333,
                        "Longitude": 1.4666667
                        },
                        {
                        "Country": "ad",
                        "City": "canillo",
                        "AccentCity": "Canillo",
                        "Region": 2,
                        "Population": 3292,
                        "Latitude": 42.5666667,
                        "Longitude": 1.6
                        },
                        {
                        "Country": "ad",
                        "City": "casas vila",
                        "AccentCity": "Casas Vila",
                        "Region": 3,
                        "Population": 0,
                        "Latitude": 42.5333333,
                        "Longitude": 1.5666667
                        },
                        {
                        "Country": "ad",
                        "City": "certers",
                        "AccentCity": "Certers",
                        "Region": 6,
                        "Population": 0,
                        "Latitude": 42.4666667,
                        "Longitude": 1.5
                        },
                        {
                        "Country": "ad",
                        "City": "certes",
                        "AccentCity": "Certs",
                        "Region": 6,
                        "Population": 0,
                        "Latitude": 42.4666667,
                        "Longitude": 1.5
                        },
                        {
                        "Country": "ad",
                        "City": "eixirivall",
                        "AccentCity": "Eixirivall",
                        "Region": 6,
                        "Population": 0,
                        "Latitude": 42.4666667,
                        "Longitude": 1.5
                        },
                        {
                        "Country": "ad",
                        "City": "el pui",
                        "AccentCity": "El Pui",
                        "Region": 4,
                        "Population": 0,
                        "Latitude": 42.55,
                        "Longitude": 1.5166667
                        },
                        {
                        "Country": "ad",
                        "City": "els bons",
                        "AccentCity": "Els Bons",
                        "Region": 3,
                        "Population": 0,
                        "Latitude": 42.5333333,
                        "Longitude": 1.5833333
                        },
                        {
                        "Country": "ad",
                        "City": "el serrat",
                        "AccentCity": "El Serrat",
                        "Region": 4,
                        "Population": 0,
                        "Latitude": 42.6166667,
                        "Longitude": 1.55
                        },
                        {
                        "Country": "ad",
                        "City": "els plans",
                        "AccentCity": "Els Plans",
                        "Region": 2,
                        "Population": 0,
                        "Latitude": 42.5833333,
                        "Longitude": 1.6333333
                        },
                        {
                        "Country": "ad",
                        "City": "el tarter",
                        "AccentCity": "El Tarter",
                        "Region": 2,
                        "Population": 0,
                        "Latitude": 42.5833333,
                        "Longitude": 1.65
                        },
                        {
                        "Country": "ad",
                        "City": "el tremat",
                        "AccentCity": "El Tremat",
                        "Region": 3,
                        "Population": 0,
                        "Latitude": 42.55,
                        "Longitude": 1.5833333
                        },
                        {
                        "Country": "ad",
                        "City": "el vilar",
                        "AccentCity": "El Vilar",
                        "Region": 2,
                        "Population": 0,
                        "Latitude": 42.5666667,
                        "Longitude": 1.6
                        },
                        {
                        "Country": "ad",
                        "City": "encamp",
                        "AccentCity": "Encamp",
                        "Region": 3,
                        "Population": 11224,
                        "Latitude": 42.5333333,
                        "Longitude": 1.5833333
                        },
                        {
                        "Country": "ad",
                        "City": "engordany",
                        "AccentCity": "Engordany",
                        "Region": 8,
                        "Population": 0,
                        "Latitude": 42.5166667,
                        "Longitude": 1.55
                        },
                        {
                        "Country": "ad",
                        "City": "ercs",
                        "AccentCity": "Ercs",
                        "Region": 4,
                        "Population": 0,
                        "Latitude": 42.5666667,
                        "Longitude": 1.5
                        },
                        {
                        "Country": "ad",
                        "City": "ercz",
                        "AccentCity": "Ercz",
                        "Region": 4,
                        "Population": 0,
                        "Latitude": 42.5666667,
                        "Longitude": 1.5
                        },
                        {
                        "Country": "ad",
                        "City": "erez",
                        "AccentCity": "Erez",
                        "Region": 4,
                        "Population": 0,
                        "Latitude": 42.5666667,
                        "Longitude": 1.5
                        },
                        {
                        "Country": "ad",
                        "City": "erts",
                        "AccentCity": "Erts",
                        "Region": 4,
                        "Population": 0,
                        "Latitude": 42.5666667,
                        "Longitude": 1.5
                        },
                        {
                        "Country": "ad",
                        "City": "escaldas",
                        "AccentCity": "Escaldas",
                        "Region": 8,
                        "Population": 0,
                        "Latitude": 42.5,
                        "Longitude": 1.5333333
                        },
                        {
                        "Country": "ad",
                        "City": "escaldes",
                        "AccentCity": "Escaldes",
                        "Region": 8,
                        "Population": 0,
                        "Latitude": 42.5,
                        "Longitude": 1.5333333
                        },
                        {
                        "Country": "ad",
                        "City": "escas",
                        "AccentCity": "Escs",
                        "Region": 4,
                        "Population": 0,
                        "Latitude": 42.55,
                        "Longitude": 1.5166667
                        },
                        {
                        "Country": "ad",
                        "City": "fontaneda",
                        "AccentCity": "Fontaneda",
                        "Region": 6,
                        "Population": 0,
                        "Latitude": 42.45,
                        "Longitude": 1.4666667
                        },
                        {
                        "Country": "ad",
                        "City": "juberri",
                        "AccentCity": "Juberri",
                        "Region": 6,
                        "Population": 0,
                        "Latitude": 42.4333333,
                        "Longitude": 1.5
                        },
                        {
                        "Country": "ad",
                        "City": "juverri",
                        "AccentCity": "Juverri",
                        "Region": 6,
                        "Population": 0,
                        "Latitude": 42.4333333,
                        "Longitude": 1.5
                        },
                        {
                        "Country": "ad",
                        "City": "la cortinada",
                        "AccentCity": "La Cortinada",
                        "Region": 4,
                        "Population": 0,
                        "Latitude": 42.5666667,
                        "Longitude": 1.5166667
                        },
                        {
                        "Country": "ad",
                        "City": "la costa",
                        "AccentCity": "La Costa",
                        "Region": 2,
                        "Population": 0,
                        "Latitude": 42.5833333,
                        "Longitude": 1.6333333
                        },
                        {
                        "Country": "ae",
                        "City": "dubai",
                        "AccentCity": "Dubai",
                        "Region": 3,
                        "Population": 1137376,
                        "Latitude": 25.258172,
                        "Longitude": 55.304717
                        },
                        {
                        "Country": "br",
                        "City": "pau quebrado",
                        "AccentCity": "Pau Quebrado",
                        "Region": 13,
                        "Population": 0,
                        "Latitude": 3.323056,
                        "Longitude": 43.493611
                        },
                        {
                        "Country": "br",
                        "City": "pau queimado",
                        "AccentCity": "Pau Queimado",
                        "Region": 4,
                        "Population": 0,
                        "Latitude": 6.366667,
                        "Longitude": 61.766667
                        },
                        {
                        "Country": "br",
                        "City": "pau real",
                        "AccentCity": "Pau Real",
                        "Region": 13,
                        "Population": 0,
                        "Latitude": 4.45,
                        "Longitude": 44.85
                        },
                        {
                        "Country": "br",
                        "City": "pau sangue",
                        "AccentCity": "Pau Sangue",
                        "Region": 5,
                        "Population": 0,
                        "Latitude": 13.4,
                        "Longitude": 43.033333
                        },
                        {
                        "Country": "br",
                        "City": "paus branco",
                        "AccentCity": "Paus Branco",
                        "Region": 6,
                        "Population": 0,
                        "Latitude": 5.633333,
                        "Longitude": 39.666667
                        },
                        {
                        "Country": "br",
                        "City": "paus brancos",
                        "AccentCity": "Paus Brancos",
                        "Region": 22,
                        "Population": 0,
                        "Latitude": 5.373611,
                        "Longitude": 37.479167
                        },
                        {
                        "Country": "br",
                        "City": "paus brancos",
                        "AccentCity": "Paus Brancos",
                        "Region": 30,
                        "Population": 0,
                        "Latitude": 7.833333,
                        "Longitude": 38.3
                        },
                        {
                        "Country": "br",
                        "City": "pau seco",
                        "AccentCity": "Pau Sico",
                        "Region": 2,
                        "Population": 0,
                        "Latitude": 9.283333,
                        "Longitude": 37.766667
                        },
                        {
                        "Country": "br",
                        "City": "pau seco",
                        "AccentCity": "Pau Sico",
                        "Region": 5,
                        "Population": 0,
                        "Latitude": 14.133333,
                        "Longitude": 39
                        },
                        {
                        "Country": "br",
                        "City": "pau seco",
                        "AccentCity": "Pau Sico",
                        "Region": 15,
                        "Population": 0,
                        "Latitude": 20.2,
                        "Longitude": 45.55
                        },
                        {
                        "Country": "br",
                        "City": "paus grandes",
                        "AccentCity": "Paus Grandes",
                        "Region": 30,
                        "Population": 0,
                        "Latitude": 7.55,
                        "Longitude": 39.616667
                        },
                        {
                        "Country": "br",
                        "City": "paus",
                        "AccentCity": "Paus",
                        "Region": 20,
                        "Population": 0,
                        "Latitude": 9.55,
                        "Longitude": 44.683333
                        },
                        {
                        "Country": "br",
                        "City": "pau vermelho",
                        "AccentCity": "Pau Vermelho",
                        "Region": 5,
                        "Population": 0,
                        "Latitude": 17.15,
                        "Longitude": 39.45
                        },
                        {
                        "Country": "br",
                        "City": "pau vermelho",
                        "AccentCity": "Pau Vermelho",
                        "Region": 20,
                        "Population": 0,
                        "Latitude": 8.266667,
                        "Longitude": 41.9
                        },
                        {
                        "Country": "br",
                        "City": "pauxis",
                        "AccentCity": "Pauxis",
                        "Region": 4,
                        "Population": 0,
                        "Latitude": 3.366667,
                        "Longitude": 66.033333
                        },
                        {
                        "Country": "br",
                        "City": "pavao",
                        "AccentCity": "Pav o",
                        "Region": 5,
                        "Population": 0,
                        "Latitude": 12.65,
                        "Longitude": 38.766667
                        },
                        {
                        "Country": "br",
                        "City": "pavao",
                        "AccentCity": "Pav o",
                        "Region": 6,
                        "Population": 0,
                        "Latitude": 7.05,
                        "Longitude": 38.95
                        },
                        {
                        "Country": "br",
                        "City": "pavao",
                        "AccentCity": "Pav o",
                        "Region": 13,
                        "Population": 0,
                        "Latitude": 2.366667,
                        "Longitude": 44.6
                        },
                        {
                        "Country": "br",
                        "City": "pavao",
                        "AccentCity": "Pav o",
                        "Region": 15,
                        "Population": 0,
                        "Latitude": 17.433333,
                        "Longitude": 41
                        },
                        {
                        "Country": "br",
                        "City": "camauma",
                        "AccentCity": "Camauma",
                        "Region": 4,
                        "Population": 0,
                        "Latitude": 5.449722,
                        "Longitude": 62.853611
                        },
                        {
                        "Country": "br",
                        "City": "cambaiaba",
                        "AccentCity": "Cambaiaba",
                        "Region": 21,
                        "Population": 0,
                        "Latitude": 21.783333,
                        "Longitude": 41.25
                        },
                        {
                        "Country": "br",
                        "City": "cambajuva",
                        "AccentCity": "Cambajuva",
                        "Region": 26,
                        "Population": 0,
                        "Latitude": 28.333333,
                        "Longitude": 49.633333
                        },
                        {
                        "Country": "br",
                        "City": "cambaquara",
                        "AccentCity": "Cambaquara",
                        "Region": 27,
                        "Population": 0,
                        "Latitude": 23.9,
                        "Longitude": 45.45
                        },
                        {
                        "Country": "br",
                        "City": "cambara",
                        "AccentCity": "Cambar",
                        "Region": 14,
                        "Population": 0,
                        "Latitude": 16.233333,
                        "Longitude": 57.583333
                        },
                        {
                        "Country": "br",
                        "City": "cambara",
                        "AccentCity": "Cambar",
                        "Region": 18,
                        "Population": 21380,
                        "Latitude": 23.0411,
                        "Longitude": 50.0741
                        },
                        {
                        "Country": "br",
                        "City": "cambara",
                        "AccentCity": "Cambar",
                        "Region": 23,
                        "Population": 0,
                        "Latitude": 29.033333,
                        "Longitude": 50.15
                        },
                        {
                        "Country": "br",
                        "City": "cambara",
                        "AccentCity": "Cambar",
                        "Region": 26,
                        "Population": 0,
                        "Latitude": 26.910071,
                        "Longitude": 49.805128
                        },
                        {
                        "Country": "br",
                        "City": "cambara",
                        "AccentCity": "Cambar",
                        "Region": 27,
                        "Population": 0,
                        "Latitude": 21.716667,
                        "Longitude": 49.016667
                        },
                        {
                        "Country": "br",
                        "City": "cambaras",
                        "AccentCity": "Cambaras",
                        "Region": 14,
                        "Population": 0,
                        "Latitude": 16.55,
                        "Longitude": 57.85
                        },
                        {
                        "Country": "br",
                        "City": "cambaratiba",
                        "AccentCity": "Cambaratiba",
                        "Region": 27,
                        "Population": 0,
                        "Latitude": 21.716667,
                        "Longitude": 49.016667
                        },
                        {
                        "Country": "br",
                        "City": "cambarazinho",
                        "AccentCity": "Cambarzinho",
                        "Region": 14,
                        "Population": 0,
                        "Latitude": 17.25,
                        "Longitude": 57.2
                        },
                        {
                        "Country": "br",
                        "City": "cambaru",
                        "AccentCity": "Cambar",
                        "Region": 18,
                        "Population": 0,
                        "Latitude": 25.446563,
                        "Longitude": 48.567797
                        },
                        {
                        "Country": "cn",
                        "City": "zhaizhuang",
                        "AccentCity": "Zhaizhuang",
                        "Region": 1,
                        "Population": 0,
                        "Latitude": 32.816667,
                        "Longitude": 115.383333
                        },
                        {
                        "Country": "cn",
                        "City": "zhaizhuangzi",
                        "AccentCity": "Zhaizhuangzi",
                        "Region": 28,
                        "Population": 0,
                        "Latitude": 38.578333,
                        "Longitude": 117.256389
                        },
                        {
                        "Country": "cn",
                        "City": "zhaizhun",
                        "AccentCity": "Zhaizhun",
                        "Region": 16,
                        "Population": 0,
                        "Latitude": 25.830278,
                        "Longitude": 109.571944
                        },
                        {
                        "Country": "cn",
                        "City": "zhaizibei",
                        "AccentCity": "Zhaizibei",
                        "Region": 30,
                        "Population": 0,
                        "Latitude": 23.570556,
                        "Longitude": 115.9575
                        },
                        {
                        "Country": "cn",
                        "City": "zhaizibian",
                        "AccentCity": "Zhaizibian",
                        "Region": 7,
                        "Population": 0,
                        "Latitude": 25.255556,
                        "Longitude": 118.630278
                        },
                        {
                        "Country": "cn",
                        "City": "zhaizicun",
                        "AccentCity": "Zhaizicun",
                        "Region": 9,
                        "Population": 0,
                        "Latitude": 33.679105,
                        "Longitude": 113.782043
                        },
                        {
                        "Country": "cn",
                        "City": "zhaizicun",
                        "AccentCity": "Zhaizicun",
                        "Region": 10,
                        "Population": 0,
                        "Latitude": 37.988333,
                        "Longitude": 115.398333
                        },
                        {
                        "Country": "cn",
                        "City": "zhaizicun",
                        "AccentCity": "Zhaizicun",
                        "Region": 30,
                        "Population": 0,
                        "Latitude": 20.995155,
                        "Longitude": 109.932632
                        },
                        {
                        "Country": "cn",
                        "City": "zhaiziding",
                        "AccentCity": "Zhaiziding",
                        "Region": 32,
                        "Population": 0,
                        "Latitude": 28.231232,
                        "Longitude": 104.607994
                        },
                        {
                        "Country": "cn",
                        "City": "zhaizigou",
                        "AccentCity": "Zhaizigou",
                        "Region": 9,
                        "Population": 0,
                        "Latitude": 33.83801,
                        "Longitude": 112.508192
                        },
                        {
                        "Country": "cn",
                        "City": "zhaizigou",
                        "AccentCity": "Zhaizigou",
                        "Region": 15,
                        "Population": 0,
                        "Latitude": 35.678809,
                        "Longitude": 102.889193
                        },
                        {
                        "Country": "cn",
                        "City": "zhaizihou",
                        "AccentCity": "Zhaizihou",
                        "Region": 7,
                        "Population": 0,
                        "Latitude": 25.270556,
                        "Longitude": 118.323611
                        },
                        {
                        "Country": "cn",
                        "City": "zhaizikou",
                        "AccentCity": "Zhaizikou",
                        "Region": 1,
                        "Population": 0,
                        "Latitude": 31.382849,
                        "Longitude": 118.045774
                        },
                        {
                        "Country": "cn",
                        "City": "zhaiziliang",
                        "AccentCity": "Zhaiziliang",
                        "Region": 26,
                        "Population": 0,
                        "Latitude": 34.901689,
                        "Longitude": 107.073176
                        },
                        {
                        "Country": "cn",
                        "City": "zhaiziliang",
                        "AccentCity": "Zhaiziliang",
                        "Region": 32,
                        "Population": 0,
                        "Latitude": 32.833282,
                        "Longitude": 106.043272
                        },
                        {
                        "Country": "cn",
                        "City": "zhaiziling",
                        "AccentCity": "Zhaiziling",
                        "Region": 26,
                        "Population": 0,
                        "Latitude": 34.321497,
                        "Longitude": 107.3159
                        },
                        {
                        "Country": "cn",
                        "City": "zhaizili",
                        "AccentCity": "Zhaizili",
                        "Region": 15,
                        "Population": 0,
                        "Latitude": 33.749596,
                        "Longitude": 105.032303
                        },
                        {
                        "Country": "cn",
                        "City": "zhaizilun",
                        "AccentCity": "Zhaizilun",
                        "Region": 7,
                        "Population": 0,
                        "Latitude": 24.949167,
                        "Longitude": 117.991111
                        },
                        {
                        "Country": "cn",
                        "City": "zhaiziping",
                        "AccentCity": "Zhaiziping",
                        "Region": 7,
                        "Population": 0,
                        "Latitude": 24.921944,
                        "Longitude": 117.605556
                        },
                        {
                        "Country": "cn",
                        "City": "zhaiziping",
                        "AccentCity": "Zhaiziping",
                        "Region": 15,
                        "Population": 0,
                        "Latitude": 33.147709,
                        "Longitude": 104.806414
                        },
                        {
                        "Country": "cn",
                        "City": "zhaizipo",
                        "AccentCity": "Zhaizipo",
                        "Region": 12,
                        "Population": 0,
                        "Latitude": 30.856261,
                        "Longitude": 111.032609
                        },
                        {
                        "Country": "cn",
                        "City": "zhaizipo",
                        "AccentCity": "Zhaizipo",
                        "Region": 32,
                        "Population": 0,
                        "Latitude": 30.577391,
                        "Longitude": 105.380736
                        },
                        {
                        "Country": "cn",
                        "City": "zhaizipu",
                        "AccentCity": "Zhaizipu",
                        "Region": 7,
                        "Population": 0,
                        "Latitude": 23.956746,
                        "Longitude": 117.262657
                        },
                        {
                        "Country": "cn",
                        "City": "zhaizishang",
                        "AccentCity": "Zhaizishang",
                        "Region": 12,
                        "Population": 0,
                        "Latitude": 29.754825,
                        "Longitude": 109.157875
                        },
                        {
                        "Country": "cn",
                        "City": "zhaizishang",
                        "AccentCity": "Zhaizishang",
                        "Region": 26,
                        "Population": 0,
                        "Latitude": 33.087531,
                        "Longitude": 106.294125
                        },
                        {
                        "Country": "cn",
                        "City": "zhaizishang",
                        "AccentCity": "Zhaizishang",
                        "Region": 32,
                        "Population": 0,
                        "Latitude": 28.896837,
                        "Longitude": 104.034024
                        },
                        {
                        "Country": "cn",
                        "City": "zhaizishanxiaba",
                        "AccentCity": "Zhaizishanxiaba",
                        "Region": 32,
                        "Population": 0,
                        "Latitude": 30.288802,
                        "Longitude": 103.596583
                        },
                        {
                        "Country": "cn",
                        "City": "zhaizishan",
                        "AccentCity": "Zhaizishan",
                        "Region": 11,
                        "Population": 0,
                        "Latitude": 27.986389,
                        "Longitude": 112.0075
                        },
                        {
                        "Country": "cn",
                        "City": "zhaizishi",
                        "AccentCity": "Zhaizishi",
                        "Region": 30,
                        "Population": 0,
                        "Latitude": 23.16793,
                        "Longitude": 115.894169
                        },
                        {
                        "Country": "cn",
                        "City": "zhaizitan",
                        "AccentCity": "Zhaizitan",
                        "Region": 15,
                        "Population": 0,
                        "Latitude": 37.7,
                        "Longitude": 102.4
                        },
                        {
                        "Country": "cn",
                        "City": "zhaiziwang",
                        "AccentCity": "Zhaiziwang",
                        "Region": 9,
                        "Population": 0,
                        "Latitude": 33.509881,
                        "Longitude": 113.531082
                        },
                        {
                        "Country": "cn",
                        "City": "zhaiziwan",
                        "AccentCity": "Zhaiziwan",
                        "Region": 12,
                        "Population": 0,
                        "Latitude": 30.773653,
                        "Longitude": 111.466933
                        },
                        {
                        "Country": "cn",
                        "City": "zhaiziwan",
                        "AccentCity": "Zhaiziwan",
                        "Region": 24,
                        "Population": 0,
                        "Latitude": 37.266667,
                        "Longitude": 110.783333
                        },
                        {
                        "Country": "cn",
                        "City": "zhaiziwan",
                        "AccentCity": "Zhaiziwan",
                        "Region": 26,
                        "Population": 0,
                        "Latitude": 35.913889,
                        "Longitude": 109.884722
                        },
                        {
                        "Country": "cn",
                        "City": "zhaiziwan",
                        "AccentCity": "Zhaiziwan",
                        "Region": 32,
                        "Population": 0,
                        "Latitude": 32.503476,
                        "Longitude": 106.196047
                        },
                        {
                        "Country": "cn",
                        "City": "zhaiziwo",
                        "AccentCity": "Zhaiziwo",
                        "Region": 30,
                        "Population": 0,
                        "Latitude": 23.249511,
                        "Longitude": 115.790848
                        },
                        {
                        "Country": "cn",
                        "City": "zhaizixia",
                        "AccentCity": "Zhaizixia",
                        "Region": 3,
                        "Population": 0,
                        "Latitude": 24.997476,
                        "Longitude": 114.929851
                        },
                        {
                        "Country": "cn",
                        "City": "zhaizixia",
                        "AccentCity": "Zhaizixia",
                        "Region": 30,
                        "Population": 0,
                        "Latitude": 23.678056,
                        "Longitude": 116.093611
                        },
                        {
                        "Country": "cn",
                        "City": "zhaiziyang",
                        "AccentCity": "Zhaiziyang",
                        "Region": 9,
                        "Population": 0,
                        "Latitude": 33.037888,
                        "Longitude": 112.098505
                        },
                        {
                        "Country": "cn",
                        "City": "zhaizi",
                        "AccentCity": "Zhaizi",
                        "Region": 7,
                        "Population": 0,
                        "Latitude": 25.110556,
                        "Longitude": 117.683056
                        },
                        {
                        "Country": "cn",
                        "City": "zhaizi",
                        "AccentCity": "Zhaizi",
                        "Region": 10,
                        "Population": 0,
                        "Latitude": 37.841944,
                        "Longitude": 116.941111
                        },
                        {
                        "Country": "cn",
                        "City": "zhaizi",
                        "AccentCity": "Zhaizi",
                        "Region": 15,
                        "Population": 0,
                        "Latitude": 33.103259,
                        "Longitude": 104.931957
                        },
                        {
                        "Country": "cn",
                        "City": "zhaizi",
                        "AccentCity": "Zhaizi",
                        "Region": 24,
                        "Population": 0,
                        "Latitude": 35.934062,
                        "Longitude": 111.434417
                        },
                        {
                        "Country": "cn",
                        "City": "zhaizi",
                        "AccentCity": "Zhaizi",
                        "Region": 25,
                        "Population": 0,
                        "Latitude": 37.151111,
                        "Longitude": 117.887222
                        },
                        {
                        "Country": "cn",
                        "City": "zhaizi",
                        "AccentCity": "Zhaizi",
                        "Region": 26,
                        "Population": 0,
                        "Latitude": 34.631389,
                        "Longitude": 108.753611
                        },
                        {
                        "Country": "cn",
                        "City": "zhaizi",
                        "AccentCity": "Zhaizi",
                        "Region": 30,
                        "Population": 0,
                        "Latitude": 22.379654,
                        "Longitude": 111.369827
                        },
                        {
                        "Country": "cn",
                        "City": "zhaizi",
                        "AccentCity": "Zhaizi",
                        "Region": 32,
                        "Population": 0,
                        "Latitude": 27.641858,
                        "Longitude": 103.168638
                        },
                        {
                        "Country": "cn",
                        "City": "zhaizui",
                        "AccentCity": "Zhaizui",
                        "Region": 1,
                        "Population": 0,
                        "Latitude": 31.947222,
                        "Longitude": 117.086111
                        },
                        {
                        "Country": "cn",
                        "City": "zhajiadian",
                        "AccentCity": "Zhajiadian",
                        "Region": 19,
                        "Population": 0,
                        "Latitude": 40.536859,
                        "Longitude": 119.733624
                        },
                        {
                        "Country": "cn",
                        "City": "zhajiadong",
                        "AccentCity": "Zhajiadong",
                        "Region": 11,
                        "Population": 0,
                        "Latitude": 28.187307,
                        "Longitude": 114.014741
                        },
                        {
                        "Country": "cn",
                        "City": "zhajiangda",
                        "AccentCity": "Zhajiangda",
                        "Region": 32,
                        "Population": 0,
                        "Latitude": 31.668489,
                        "Longitude": 99.980191
                        },
                        {
                        "Country": "cn",
                        "City": "zhajiang",
                        "AccentCity": "Zhajiang",
                        "Region": 11,
                        "Population": 0,
                        "Latitude": 27.179444,
                        "Longitude": 112.393611
                        },
                        {
                        "Country": "cn",
                        "City": "zhajiang",
                        "AccentCity": "Zhajiang",
                        "Region": 14,
                        "Population": 0,
                        "Latitude": 28.601,
                        "Longitude": 87.501
                        },
                        {
                        "Country": "cn",
                        "City": "zhajiaota",
                        "AccentCity": "Zhajiaota",
                        "Region": 15,
                        "Population": 0,
                        "Latitude": 34.702928,
                        "Longitude": 103.13949
                        },
                        {
                        "Country": "cn",
                        "City": "zhajia",
                        "AccentCity": "Zhajia",
                        "Region": 1,
                        "Population": 0,
                        "Latitude": 29.870535,
                        "Longitude": 117.316924
                        },
                        {
                        "Country": "cn",
                        "City": "zhajin",
                        "AccentCity": "Zhajin",
                        "Region": 3,
                        "Population": 0,
                        "Latitude": 29.009612,
                        "Longitude": 114.235968
                        },
                        {
                        "Country": "cn",
                        "City": "zhajin zhen",
                        "AccentCity": "Zhajin Zhen",
                        "Region": 3,
                        "Population": 0,
                        "Latitude": 29.009612,
                        "Longitude": 114.235968
                        },
                        {
                        "Country": "cn",
                        "City": "zhaji",
                        "AccentCity": "Zhaji",
                        "Region": 1,
                        "Population": 0,
                        "Latitude": 30.516667,
                        "Longitude": 118.033333
                        },
                        {
                        "Country": "cn",
                        "City": "zhakaduo",
                        "AccentCity": "Zhakaduo",
                        "Region": 32,
                        "Population": 0,
                        "Latitude": 30.967286,
                        "Longitude": 99.549547
                        },
                        {
                        "Country": "cn",
                        "City": "zhakang",
                        "AccentCity": "Zhakang",
                        "Region": 14,
                        "Population": 0,
                        "Latitude": 27.801,
                        "Longitude": 89.101
                        },
                        {
                        "Country": "cn",
                        "City": "zhake",
                        "AccentCity": "Zhake",
                        "Region": 32,
                        "Population": 0,
                        "Latitude": 31.913689,
                        "Longitude": 99.612391
                        },
                        {
                        "Country": "cn",
                        "City": "zhakongda",
                        "AccentCity": "Zhakongda",
                        "Region": 32,
                        "Population": 0,
                        "Latitude": 32.110289,
                        "Longitude": 99.274691
                        },
                        {
                        "Country": "cn",
                        "City": "zhakoudong",
                        "AccentCity": "Zhakoudong",
                        "Region": 32,
                        "Population": 0,
                        "Latitude": 30.558413,
                        "Longitude": 107.012178
                        },
                        {
                        "Country": "cn",
                        "City": "zhakoushi",
                        "AccentCity": "Zhakoushi",
                        "Region": 26,
                        "Population": 0,
                        "Latitude": 33.643032,
                        "Longitude": 106.727643
                        },
                        {
                        "Country": "cn",
                        "City": "zhakoushi",
                        "AccentCity": "Zhakoushi",
                        "Region": 32,
                        "Population": 0,
                        "Latitude": 28.069111,
                        "Longitude": 105.918396
                        },
                        {
                        "Country": "cn",
                        "City": "zhakou xiang",
                        "AccentCity": "Zhakou Xiang",
                        "Region": 11,
                        "Population": 0,
                        "Latitude": 29.851959,
                        "Longitude": 111.500745
                        },
                        {
                        "Country": "cn",
                        "City": "zhakouyan",
                        "AccentCity": "Zhakouyan",
                        "Region": 32,
                        "Population": 0,
                        "Latitude": 29.820601,
                        "Longitude": 104.093635
                        },
                        {
                        "Country": "cn",
                        "City": "zhakou",
                        "AccentCity": "Zhakou",
                        "Region": 1,
                        "Population": 0,
                        "Latitude": 31.103112,
                        "Longitude": 118.170818
                        },
                        {
                        "Country": "cn",
                        "City": "zhakou",
                        "AccentCity": "Zhakou",
                        "Region": 2,
                        "Population": 0,
                        "Latitude": 30.377336,
                        "Longitude": 120.752955
                        },
                        {
                        "Country": "cn",
                        "City": "zhakou",
                        "AccentCity": "Zhakou",
                        "Region": 4,
                        "Population": 0,
                        "Latitude": 31.49295,
                        "Longitude": 120.644207
                        },
                        {
                        "Country": "cn",
                        "City": "zhakou",
                        "AccentCity": "Zhakou",
                        "Region": 11,
                        "Population": 0,
                        "Latitude": 29.851959,
                        "Longitude": 111.500745
                        },
                        {
                        "Country": "de",
                        "City": "grossefehn",
                        "AccentCity": "Grossefehn",
                        "Region": 6,
                        "Population": 0,
                        "Latitude": 53.4,
                        "Longitude": 7.55
                        },
                        {
                        "Country": "de",
                        "City": "grosseggenberg",
                        "AccentCity": "Groeggenberg",
                        "Region": 2,
                        "Population": 0,
                        "Latitude": 48.366667,
                        "Longitude": 12.683333
                        },
                        {
                        "Country": "de",
                        "City": "grosseglsee",
                        "AccentCity": "Groeglsee",
                        "Region": 2,
                        "Population": 0,
                        "Latitude": 47.866667,
                        "Longitude": 11.55
                        },
                        {
                        "Country": "de",
                        "City": "grosse heide",
                        "AccentCity": "Groe Heide",
                        "Region": 6,
                        "Population": 0,
                        "Latitude": 52.216667,
                        "Longitude": 7.983333
                        },
                        {
                        "Country": "de",
                        "City": "grosseheide",
                        "AccentCity": "Groeheide",
                        "Region": 7,
                        "Population": 0,
                        "Latitude": 51.05,
                        "Longitude": 7.2
                        },
                        {
                        "Country": "de",
                        "City": "grossehohe",
                        "AccentCity": "Groehhe",
                        "Region": 7,
                        "Population": 0,
                        "Latitude": 51.3,
                        "Longitude": 7.066667
                        },
                        {
                        "Country": "de",
                        "City": "grosseholz",
                        "AccentCity": "Groeholz",
                        "Region": 6,
                        "Population": 0,
                        "Latitude": 52.966667,
                        "Longitude": 9.766667
                        },
                        {
                        "Country": "de",
                        "City": "grosseholz",
                        "AccentCity": "Groeholz",
                        "Region": 7,
                        "Population": 0,
                        "Latitude": 52.416667,
                        "Longitude": 8.433333
                        },
                        {
                        "Country": "de",
                        "City": "grosseibstadt",
                        "AccentCity": "Groeibstadt",
                        "Region": 2,
                        "Population": 0,
                        "Latitude": 50.3,
                        "Longitude": 10.416667
                        },
                        {
                        "Country": "de",
                        "City": "gross eichen",
                        "AccentCity": "Gro Eichen",
                        "Region": 5,
                        "Population": 0,
                        "Latitude": 50.6,
                        "Longitude": 9.066667
                        },
                        {
                        "Country": "de",
                        "City": "grosseichenhausen",
                        "AccentCity": "Groeichenhausen",
                        "Region": 2,
                        "Population": 0,
                        "Latitude": 47.95,
                        "Longitude": 11.6
                        },
                        {
                        "Country": "de",
                        "City": "gross eichholz",
                        "AccentCity": "Gro Eichholz",
                        "Region": 11,
                        "Population": 0,
                        "Latitude": 52.166667,
                        "Longitude": 13.866667
                        },
                        {
                        "Country": "de",
                        "City": "grosseicholzheim",
                        "AccentCity": "Groeicholzheim",
                        "Region": 1,
                        "Population": 0,
                        "Latitude": 49.45,
                        "Longitude": 9.283333
                        },
                        {
                        "Country": "de",
                        "City": "grosseichsen",
                        "AccentCity": "Groeichsen",
                        "Region": 12,
                        "Population": 0,
                        "Latitude": 53.75,
                        "Longitude": 11.25
                        },
                        {
                        "Country": "de",
                        "City": "gross eicklingen",
                        "AccentCity": "Gro Eicklingen",
                        "Region": 6,
                        "Population": 0,
                        "Latitude": 52.566667,
                        "Longitude": 10.183333
                        },
                        {
                        "Country": "de",
                        "City": "gross eigen",
                        "AccentCity": "Gro Eigen",
                        "Region": 7,
                        "Population": 0,
                        "Latitude": 50.916667,
                        "Longitude": 7.216667
                        },
                        {
                        "Country": "de",
                        "City": "gross eilstorf",
                        "AccentCity": "Gro Eilstorf",
                        "Region": 6,
                        "Population": 0,
                        "Latitude": 52.816667,
                        "Longitude": 9.45
                        },
                        {
                        "Country": "de",
                        "City": "grosseisenbach",
                        "AccentCity": "Groeisenbach",
                        "Region": 2,
                        "Population": 0,
                        "Latitude": 48.366667,
                        "Longitude": 11.6
                        },
                        {
                        "Country": "de",
                        "City": "gross eissel",
                        "AccentCity": "Gro Eissel",
                        "Region": 6,
                        "Population": 0,
                        "Latitude": 52.95,
                        "Longitude": 9.2
                        },
                        {
                        "Country": "de",
                        "City": "gross elbe",
                        "AccentCity": "Gro Elbe",
                        "Region": 6,
                        "Population": 0,
                        "Latitude": 52.1,
                        "Longitude": 10.283333
                        },
                        {
                        "Country": "de",
                        "City": "grosseledder",
                        "AccentCity": "GroeLedder",
                        "Region": 7,
                        "Population": 0,
                        "Latitude": 51.1,
                        "Longitude": 7.216667
                        },
                        {
                        "Country": "de",
                        "City": "grosselfingen",
                        "AccentCity": "Grosselfingen",
                        "Region": 1,
                        "Population": 0,
                        "Latitude": 48.333333,
                        "Longitude": 8.883333
                        },
                        {
                        "Country": "de",
                        "City": "grosselfingen",
                        "AccentCity": "Groelfingen",
                        "Region": 2,
                        "Population": 0,
                        "Latitude": 48.85,
                        "Longitude": 10.55
                        },
                        {
                        "Country": "de",
                        "City": "gross ellenberg",
                        "AccentCity": "Gro Ellenberg",
                        "Region": 6,
                        "Population": 0,
                        "Latitude": 52.933333,
                        "Longitude": 10.75
                        },
                        {
                        "Country": "de",
                        "City": "gross ellerbull",
                        "AccentCity": "Gro Ellerbll",
                        "Region": 10,
                        "Population": 0,
                        "Latitude": 54.55,
                        "Longitude": 8.983333
                        },
                        {
                        "Country": "de",
                        "City": "gross ellershausen",
                        "AccentCity": "Gro Ellershausen",
                        "Region": 6,
                        "Population": 0,
                        "Latitude": 51.516667,
                        "Longitude": 9.866667
                        },
                        {
                        "Country": "de",
                        "City": "gross ellingen",
                        "AccentCity": "Gro Ellingen",
                        "Region": 14,
                        "Population": 0,
                        "Latitude": 52.7,
                        "Longitude": 11.966667
                        },
                        {
                        "Country": "de",
                        "City": "gross elmenhorst",
                        "AccentCity": "Gro Elmenhorst",
                        "Region": 12,
                        "Population": 0,
                        "Latitude": 54.216667,
                        "Longitude": 13.05
                        },
                        {
                        "Country": "de",
                        "City": "grosse muhle",
                        "AccentCity": "Groe Mhle",
                        "Region": 14,
                        "Population": 0,
                        "Latitude": 51.633333,
                        "Longitude": 12.35
                        },
                        {
                        "Country": "de",
                        "City": "grossenaspe",
                        "AccentCity": "Groenaspe",
                        "Region": 10,
                        "Population": 0,
                        "Latitude": 53.983333,
                        "Longitude": 9.966667
                        },
                        {
                        "Country": "de",
                        "City": "grossenasperfeld",
                        "AccentCity": "Groenasperfeld",
                        "Region": 10,
                        "Population": 0,
                        "Latitude": 53.95,
                        "Longitude": 9.966667
                        },
                        {
                        "Country": "de",
                        "City": "grossenast",
                        "AccentCity": "Groenast",
                        "Region": 2,
                        "Population": 0,
                        "Latitude": 47.666667,
                        "Longitude": 11.066667
                        },
                        {
                        "Country": "de",
                        "City": "grossenau",
                        "AccentCity": "Grossenau",
                        "Region": 2,
                        "Population": 0,
                        "Latitude": 50.116667,
                        "Longitude": 11.783333
                        },
                        {
                        "Country": "de",
                        "City": "grossenbach",
                        "AccentCity": "Groenbach",
                        "Region": 5,
                        "Population": 0,
                        "Latitude": 50.683333,
                        "Longitude": 9.816667
                        },
                        {
                        "Country": "de",
                        "City": "grossenbach",
                        "AccentCity": "Groenbach",
                        "Region": 7,
                        "Population": 0,
                        "Latitude": 50.916667,
                        "Longitude": 8.25
                        },
                        {
                        "Country": "de",
                        "City": "grossenbaum",
                        "AccentCity": "Groenbaum",
                        "Region": 7,
                        "Population": 0,
                        "Latitude": 51.366667,
                        "Longitude": 6.783333
                        },
                        {
                        "Country": "de",
                        "City": "grossenbehringen",
                        "AccentCity": "Groenbehringen",
                        "Region": 15,
                        "Population": 0,
                        "Latitude": 51.033333,
                        "Longitude": 10.516667
                        },
                        {
                        "Country": "de",
                        "City": "grossenberg",
                        "AccentCity": "Groenberg",
                        "Region": 6,
                        "Population": 0,
                        "Latitude": 51.95,
                        "Longitude": 9.3
                        },
                        {
                        "Country": "de",
                        "City": "grossenberken",
                        "AccentCity": "Groenberken",
                        "Region": 7,
                        "Population": 0,
                        "Latitude": 52.266667,
                        "Longitude": 8.733333
                        },
                        {
                        "Country": "de",
                        "City": "grossenbernberg",
                        "AccentCity": "Groenbernberg",
                        "Region": 7,
                        "Population": 0,
                        "Latitude": 51.016667,
                        "Longitude": 7.583333
                        },
                        {
                        "Country": "de",
                        "City": "grossenbornholt",
                        "AccentCity": "Groenbornholt",
                        "Region": 10,
                        "Population": 0,
                        "Latitude": 54.1,
                        "Longitude": 9.333333
                        },
                        {
                        "Country": "de",
                        "City": "grossenborstel",
                        "AccentCity": "Groenborstel",
                        "Region": 6,
                        "Population": 0,
                        "Latitude": 52.883333,
                        "Longitude": 9.016667
                        },
                        {
                        "Country": "de",
                        "City": "grossenbrach",
                        "AccentCity": "Groenbrach",
                        "Region": 2,
                        "Population": 0,
                        "Latitude": 50.25,
                        "Longitude": 10.083333
                        },
                        {
                        "Country": "de",
                        "City": "grossenbreden",
                        "AccentCity": "Groenbreden",
                        "Region": 7,
                        "Population": 0,
                        "Latitude": 51.833333,
                        "Longitude": 9.25
                        },
                        {
                        "Country": "de",
                        "City": "grossenbrode",
                        "AccentCity": "Groenbrode",
                        "Region": 10,
                        "Population": 0,
                        "Latitude": 54.383333,
                        "Longitude": 11.083333
                        },
                        {
                        "Country": "de",
                        "City": "grossenbrodekai",
                        "AccentCity": "GroenbrodeKai",
                        "Region": 10,
                        "Population": 0,
                        "Latitude": 54.366667,
                        "Longitude": 11.083333
                        },
                        {
                        "Country": "de",
                        "City": "grossenbroderfahre",
                        "AccentCity": "Groenbroderfhre",
                        "Region": 10,
                        "Population": 0,
                        "Latitude": 54.383333,
                        "Longitude": 11.2
                        },
                        {
                        "Country": "de",
                        "City": "grossenbuch",
                        "AccentCity": "Groenbuch",
                        "Region": 2,
                        "Population": 0,
                        "Latitude": 49.616667,
                        "Longitude": 11.166667
                        },
                        {
                        "Country": "de",
                        "City": "grossen buseck",
                        "AccentCity": "Groen Buseck",
                        "Region": 5,
                        "Population": 0,
                        "Latitude": 50.6,
                        "Longitude": 8.783333
                        },
                        {
                        "Country": "de",
                        "City": "grossendorferheide",
                        "AccentCity": "Groendorferheide",
                        "Region": 10,
                        "Population": 0,
                        "Latitude": 53.816667,
                        "Longitude": 9.766667
                        },
                        {
                        "Country": "de",
                        "City": "grossendorf",
                        "AccentCity": "Groendorf",
                        "Region": 10,
                        "Population": 0,
                        "Latitude": 53.8,
                        "Longitude": 9.783333
                        },
                        {
                        "Country": "de",
                        "City": "grossendrehscheid",
                        "AccentCity": "Groendrehscheid",
                        "Region": 7,
                        "Population": 0,
                        "Latitude": 51.266667,
                        "Longitude": 7.65
                        },
                        {
                        "Country": "de",
                        "City": "grossendrescheid",
                        "AccentCity": "Groendrescheid",
                        "Region": 7,
                        "Population": 0,
                        "Latitude": 51.266667,
                        "Longitude": 7.65
                        },
                        {
                        "Country": "de",
                        "City": "grosseneder",
                        "AccentCity": "Groeneder",
                        "Region": 7,
                        "Population": 0,
                        "Latitude": 51.55,
                        "Longitude": 10.166667
                        },
                        {
                        "Country": "de",
                        "City": "grossenehrich",
                        "AccentCity": "Groenehrich",
                        "Region": 15,
                        "Population": 0,
                        "Latitude": 51.25,
                        "Longitude": 10.833333
                        },
                        {
                        "Country": "de",
                        "City": "grossenehrichwest",
                        "AccentCity": "GroenehrichWest",
                        "Region": 15,
                        "Population": 0,
                        "Latitude": 51.25,
                        "Longitude": 10.8
                        },
                        {
                        "Country": "de",
                        "City": "grossenenglis",
                        "AccentCity": "Groenenglis",
                        "Region": 5,
                        "Population": 0,
                        "Latitude": 51.066667,
                        "Longitude": 9.266667
                        },
                        {
                        "Country": "de",
                        "City": "grossenfalz",
                        "AccentCity": "Groenfalz",
                        "Region": 2,
                        "Population": 0,
                        "Latitude": 49.533333,
                        "Longitude": 11.716667
                        },
                        {
                        "Country": "de",
                        "City": "gross engersen",
                        "AccentCity": "Gr Engersen",
                        "Region": 14,
                        "Population": 0,
                        "Latitude": 52.616667,
                        "Longitude": 11.35
                        },
                        {
                        "Country": "de",
                        "City": "grossenging",
                        "AccentCity": "Groenging",
                        "Region": 6,
                        "Population": 0,
                        "Latitude": 52.833333,
                        "Longitude": 7.833333
                        },
                        {
                        "Country": "de",
                        "City": "grossengottern",
                        "AccentCity": "Groengottern",
                        "Region": 15,
                        "Population": 0,
                        "Latitude": 51.15,
                        "Longitude": 10.583333
                        },
                        {
                        "Country": "de",
                        "City": "grossengsee",
                        "AccentCity": "Groengsee",
                        "Region": 2,
                        "Population": 0,
                        "Latitude": 49.633333,
                        "Longitude": 11.366667
                        },
                        {
                        "Country": "de",
                        "City": "grossengstingen",
                        "AccentCity": "Groengstingen",
                        "Region": 1,
                        "Population": 0,
                        "Latitude": 48.383333,
                        "Longitude": 9.283333
                        },
                        {
                        "Country": "de",
                        "City": "grossenhag",
                        "AccentCity": "Groenhag",
                        "Region": 2,
                        "Population": 0,
                        "Latitude": 48.5,
                        "Longitude": 11.466667
                        },
                        {
                        "Country": "de",
                        "City": "grossenhain",
                        "AccentCity": "Groenhain",
                        "Region": 6,
                        "Population": 0,
                        "Latitude": 53.566667,
                        "Longitude": 8.966667
                        },
                        {
                        "Country": "de",
                        "City": "grossenhain",
                        "AccentCity": "Groenhain",
                        "Region": 13,
                        "Population": 0,
                        "Latitude": 51.283333,
                        "Longitude": 13.55
                        },
                        {
                        "Country": "de",
                        "City": "grossenhalm",
                        "AccentCity": "Groenhalm",
                        "Region": 6,
                        "Population": 0,
                        "Latitude": 53.183333,
                        "Longitude": 8.7
                        },
                        {
                        "Country": "de",
                        "City": "grossenhausen",
                        "AccentCity": "Groenhausen",
                        "Region": 5,
                        "Population": 0,
                        "Latitude": 50.166667,
                        "Longitude": 9.2
                        },
                        {
                        "Country": "de",
                        "City": "grossenhecken",
                        "AccentCity": "Groenhecken",
                        "Region": 7,
                        "Population": 0,
                        "Latitude": 50.9,
                        "Longitude": 7.216667
                        },
                        {
                        "Country": "de",
                        "City": "grossenheerse",
                        "AccentCity": "Groenheerse",
                        "Region": 7,
                        "Population": 0,
                        "Latitude": 52.45,
                        "Longitude": 8.983333
                        },
                        {
                        "Country": "de",
                        "City": "grossenheide",
                        "AccentCity": "Groenheide",
                        "Region": 7,
                        "Population": 0,
                        "Latitude": 52.4,
                        "Longitude": 8.483333
                        },
                        {
                        "Country": "de",
                        "City": "grossenheidorn",
                        "AccentCity": "Groenheidorn",
                        "Region": 6,
                        "Population": 0,
                        "Latitude": 52.433333,
                        "Longitude": 9.416667
                        },
                        {
                        "Country": "de",
                        "City": "grossenhof",
                        "AccentCity": "Groenhof",
                        "Region": 12,
                        "Population": 0,
                        "Latitude": 53.933333,
                        "Longitude": 11.2
                        },
                        {
                        "Country": "de",
                        "City": "grossenhub",
                        "AccentCity": "Groenhub",
                        "Region": 1,
                        "Population": 0,
                        "Latitude": 49.083333,
                        "Longitude": 10.166667
                        },
                        {
                        "Country": "de",
                        "City": "grossenhul",
                        "AccentCity": "Groenhl",
                        "Region": 2,
                        "Population": 0,
                        "Latitude": 49.983333,
                        "Longitude": 11.333333
                        },
                        {
                        "Country": "de",
                        "City": "grossenhull",
                        "AccentCity": "Groenhll",
                        "Region": 2,
                        "Population": 0,
                        "Latitude": 49.983333,
                        "Longitude": 11.333333
                        },
                        {
                        "Country": "de",
                        "City": "grossenkneten",
                        "AccentCity": "Groenkneten",
                        "Region": 6,
                        "Population": 0,
                        "Latitude": 52.95,
                        "Longitude": 8.266667
                        },
                        {
                        "Country": "de",
                        "City": "grossen lengden",
                        "AccentCity": "Groen Lengden",
                        "Region": 6,
                        "Population": 0,
                        "Latitude": 51.516667,
                        "Longitude": 10.033333
                        },
                        {
                        "Country": "de",
                        "City": "grossenlinden",
                        "AccentCity": "Groenlinden",
                        "Region": 5,
                        "Population": 0,
                        "Latitude": 50.533333,
                        "Longitude": 8.65
                        },
                        {
                        "Country": "de",
                        "City": "grossen luckow",
                        "AccentCity": "Groen Luckow",
                        "Region": 12,
                        "Population": 0,
                        "Latitude": 53.683333,
                        "Longitude": 12.516667
                        },
                        {
                        "Country": "de",
                        "City": "grossenluder",
                        "AccentCity": "Groenlder",
                        "Region": 5,
                        "Population": 0,
                        "Latitude": 50.583333,
                        "Longitude": 9.533333
                        },
                        {
                        "Country": "de",
                        "City": "grossenlupnitz",
                        "AccentCity": "Groenlupnitz",
                        "Region": 15,
                        "Population": 0,
                        "Latitude": 51,
                        "Longitude": 10.416667
                        },
                        {
                        "Country": "de",
                        "City": "grossenmarpe",
                        "AccentCity": "Groenmarpe",
                        "Region": 7,
                        "Population": 0,
                        "Latitude": 51.983333,
                        "Longitude": 9.016667
                        },
                        {
                        "Country": "de",
                        "City": "grossenmoor",
                        "AccentCity": "Groenmoor",
                        "Region": 5,
                        "Population": 0,
                        "Latitude": 50.7,
                        "Longitude": 9.65
                        },
                        {
                        "Country": "dz",
                        "City": "ez zloua",
                        "AccentCity": "Ez Zloua",
                        "Region": 27,
                        "Population": 0,
                        "Latitude": 35.8497222,
                        "Longitude": 3.7275
                        },
                        {
                        "Country": "dz",
                        "City": "ez zmala",
                        "AccentCity": "Ez Zmala",
                        "Region": 39,
                        "Population": 0,
                        "Latitude": 35.8833333,
                        "Longitude": 4.9333333
                        },
                        {
                        "Country": "dz",
                        "City": "ez zoubia",
                        "AccentCity": "Ez Zoubia",
                        "Region": 13,
                        "Population": 0,
                        "Latitude": 35.0969444,
                        "Longitude": 0.8
                        },
                        {
                        "Country": "dz",
                        "City": "ez zoubia",
                        "AccentCity": "Ez Zoubia",
                        "Region": 51,
                        "Population": 0,
                        "Latitude": 35.6955556,
                        "Longitude": 0.8244444
                        },
                        {
                        "Country": "dz",
                        "City": "faidherbe",
                        "AccentCity": "Faidherbe",
                        "Region": 13,
                        "Population": 0,
                        "Latitude": 35.3666667,
                        "Longitude": 1.3833333
                        },
                        {
                        "Country": "dz",
                        "City": "fais",
                        "AccentCity": "Fais",
                        "Region": 3,
                        "Population": 0,
                        "Latitude": 35.515,
                        "Longitude": 6.75
                        },
                        {
                        "Country": "dz",
                        "City": "falcon",
                        "AccentCity": "Falcon",
                        "Region": 9,
                        "Population": 0,
                        "Latitude": 35.7663889,
                        "Longitude": 0.7980556
                        },
                        {
                        "Country": "dz",
                        "City": "farfar",
                        "AccentCity": "Farfar",
                        "Region": 19,
                        "Population": 0,
                        "Latitude": 34.7333333,
                        "Longitude": 5.4
                        },
                        {
                        "Country": "dz",
                        "City": "fatis",
                        "AccentCity": "Fatis",
                        "Region": 0,
                        "Population": 0,
                        "Latitude": 29.7333333,
                        "Longitude": 0.65
                        },
                        {
                        "Country": "dz",
                        "City": "faubourg oued",
                        "AccentCity": "Faubourg oued",
                        "Region": 26,
                        "Population": 0,
                        "Latitude": 35.4005556,
                        "Longitude": 0.1366667
                        },
                        {
                        "Country": "dz",
                        "City": "faubourg bab",
                        "AccentCity": "Faubourg Bab",
                        "Region": 1,
                        "Population": 0,
                        "Latitude": 36.8,
                        "Longitude": 3.05
                        },
                        {
                        "Country": "dz",
                        "City": "faubourg bel air",
                        "AccentCity": "Faubourg Bel Air",
                        "Region": 26,
                        "Population": 0,
                        "Latitude": 35.4,
                        "Longitude": 0.15
                        },
                        {
                        "Country": "dz",
                        "City": "faubourg bou",
                        "AccentCity": "Faubourg Bou",
                        "Region": 30,
                        "Population": 0,
                        "Latitude": 35.2,
                        "Longitude": 0.6
                        },
                        {
                        "Country": "dz",
                        "City": "faubourg l",
                        "AccentCity": "Faubourg l",
                        "Region": 4,
                        "Population": 0,
                        "Latitude": 36.3722222,
                        "Longitude": 6.6252778
                        },
                        {
                        "Country": "dz",
                        "City": "faubourg m",
                        "AccentCity": "Faubourg m",
                        "Region": 30,
                        "Population": 0,
                        "Latitude": 35.290909,
                        "Longitude": 0.65
                        },
                        {
                        "Country": "dz",
                        "City": "faubourg martin",
                        "AccentCity": "Faubourg martin",
                        "Region": 26,
                        "Population": 0,
                        "Latitude": 35.4,
                        "Longitude": 0.1333333
                        },
                        {
                        "Country": "dz",
                        "City": "faubourg n",
                        "AccentCity": "Faubourg n",
                        "Region": 30,
                        "Population": 0,
                        "Latitude": 35.1833333,
                        "Longitude": 0.6333333
                        },
                        {
                        "Country": "dz",
                        "City": "faubourg sainte",
                        "AccentCity": "Faubourg Sainte",
                        "Region": 31,
                        "Population": 4507,
                        "Latitude": 36.9,
                        "Longitude": 7.75
                        },
                        {
                        "Country": "dz",
                        "City": "faubourg ga",
                        "AccentCity": "Faubourg ga",
                        "Region": 30,
                        "Population": 45777,
                        "Latitude": 35.200000,
                        "Longitude": 0.6333333
                        },
                        {
                        "Country": "dz",
                        "City": "faubourg la",
                        "AccentCity": "Faubourg la",
                        "Region": 4,
                        "Population": 0,
                        "Latitude": 36.3722222,
                        "Longitude": 6.6252778
                        },
                        {
                        "Country": "dz",
                        "City": "faubourg ma",
                        "AccentCity": "Faubourg ma",
                        "Region": 30,
                        "Population": 0,
                        "Latitude": 35.290909,
                        "Longitude": 0.65
                        },
                        {
                        "Country": "dz",
                        "City": "faubourg martina",
                        "AccentCity": "Faubourg martina",
                        "Region": 26,
                        "Population": 0,
                        "Latitude": 35.4,
                        "Longitude": 0.1333333
                        },
                        {
                        "Country": "dz",
                        "City": "faubourg na",
                        "AccentCity": "Faubourg na",
                        "Region": 30,
                        "Population": 0,
                        "Latitude": 35.1833333,
                        "Longitude": 0.6333333
                        },
                        {
                        "Country": "dz",
                        "City": "faubourg saintea",
                        "AccentCity": "Faubourg Saintea",
                        "Region": 31,
                        "Population": 0,
                        "Latitude": 36.9,
                        "Longitude": 7.75
                        },
                        {
                        "Country": "dz",
                        "City": "faubourg saint jean",
                        "AccentCity": "Faubourg Saint Jean",
                        "Region": 4,
                        "Population": 0,
                        "Latitude": 36.3611111,
                        "Longitude": 6.6038889
                        },
                        {
                        "Country": "dz",
                        "City": "faubourg thiers",
                        "AccentCity": "Faubourg Thiers",
                        "Region": 30,
                        "Population": 0,
                        "Latitude": 35.1833333,
                        "Longitude": 0.65
                        },
                        {
                        "Country": "dz",
                        "City": "faucigny",
                        "AccentCity": "Faucigny",
                        "Region": 12,
                        "Population": 0,
                        "Latitude": 36.2538889,
                        "Longitude": 5.265
                        },
                        {
                        "Country": "dz",
                        "City": "fauvelle",
                        "AccentCity": "Fauvelle",
                        "Region": 37,
                        "Population": 0,
                        "Latitude": 36.3738889,
                        "Longitude": 7.7947222
                        },
                        {
                        "Country": "dz",
                        "City": "feddane sellah",
                        "AccentCity": "Feddane Sellah",
                        "Region": 15,
                        "Population": 0,
                        "Latitude": 35.0038889,
                        "Longitude": 1.835
                        },
                        {
                        "Country": "dz",
                        "City": "fedj ed dedjal",
                        "AccentCity": "Fedj ed Dedjal",
                        "Region": 37,
                        "Population": 0,
                        "Latitude": 35.7166667,
                        "Longitude": 8.1833333
                        },
                        {
                        "Country": "dz",
                        "City": "fedj mzala",
                        "AccentCity": "Fedj MZala",
                        "Region": 4,
                        "Population": 0,
                        "Latitude": 36.4,
                        "Longitude": 5.95
                        },
                        {
                        "Country": "dz",
                        "City": "fedoul",
                        "AccentCity": "Fedoul",
                        "Region": 13,
                        "Population": 0,
                        "Latitude": 35.4833333,
                        "Longitude": 2.1166667
                        },
                        {
                        "Country": "dz",
                        "City": "feghaiha",
                        "AccentCity": "Feghaiha",
                        "Region": 35,
                        "Population": 0,
                        "Latitude": 36.25,
                        "Longitude": 2.0166667
                        },
                        {
                        "Country": "dz",
                        "City": "feidh el botma",
                        "AccentCity": "Feidh el Botma",
                        "Region": 27,
                        "Population": 0,
                        "Latitude": 34.5,
                        "Longitude": 3.7666667
                        },
                        {
                        "Country": "dz",
                        "City": "feldene",
                        "AccentCity": "Feldene",
                        "Region": 18,
                        "Population": 0,
                        "Latitude": 36.5,
                        "Longitude": 4.5333333
                        },
                        {
                        "Country": "dz",
                        "City": "felden",
                        "AccentCity": "Felden",
                        "Region": 18,
                        "Population": 0,
                        "Latitude": 36.5,
                        "Longitude": 4.5333333
                        },
                        {
                        "Country": "dz",
                        "City": "felix faure",
                        "AccentCity": "Felix Faure",
                        "Region": 40,
                        "Population": 0,
                        "Latitude": 36.7247222,
                        "Longitude": 3.6152778
                        },
                        {
                        "Country": "dz",
                        "City": "fendi",
                        "AccentCity": "Fendi",
                        "Region": 38,
                        "Population": 0,
                        "Latitude": 31.8397222,
                        "Longitude": 1.4761111
                        },
                        {
                        "Country": "dz",
                        "City": "fenoughil",
                        "AccentCity": "Fenoughil",
                        "Region": 0,
                        "Population": 0,
                        "Latitude": 27.6666667,
                        "Longitude": 0.3
                        },
                        {
                        "Country": "dz",
                        "City": "fenourhil",
                        "AccentCity": "Fenourhil",
                        "Region": 0,
                        "Population": 0,
                        "Latitude": 27.6666667,
                        "Longitude": 0.3
                        },
                        {
                        "Country": "dz",
                        "City": "ferah",
                        "AccentCity": "Ferah",
                        "Region": 41,
                        "Population": 0,
                        "Latitude": 36.5061111,
                        "Longitude": 1.2691667
                        },
                        {
                        "Country": "dz",
                        "City": "feraoun",
                        "AccentCity": "Feraoun",
                        "Region": 0,
                        "Population": 0,
                        "Latitude": 29.4,
                        "Longitude": 0.35
                        },